{
    "hotels": [
        { "name": "Hotel A", "lat": 41.0082, "lng": 28.9784 },  
        { "name": "Hotel B", "lat": 38.4192, "lng": 27.1287 }   
    ],
    "gas_stations": [
        { "name": "Gas Station A", "lat": 37.7749, "lng": 32.4233 },  
        { "name": "Gas Station B", "lat": 40.6500, "lng": 29.0000 }   
    ],
    "restaurants": [
        { "name": "Restaurant A", "lat": 38.3601, "lng": 38.3115 },  
        { "name": "Restaurant B", "lat": 36.8969, "lng": 30.7133 }   
    ],
    "sales_points": [
        { "name": "Sales Point A", "lat": 39.9208, "lng": 32.8541 },  
        { "name": "Sales Point B", "lat": 37.0021, "lng": 35.3213 }   
    ]
}
